[{"Id":1,"Name":"Mexican1","Description":"test","Location":{"Street":"Gdans","City":"Berlin","ZIPCode":1234,"StartDate":"2022-06-28T23:36:46.7070143+02:00","EndDate":"2022-06-28T00:00:00+02:00"},"Type":{"Id":1,"Name":"mexican"},"OwnerId":1},{"Id":2,"Name":"Mexican2","Description":"test","Location":{"Street":"Gdans","City":"Berlin","ZIPCode":1234,"StartDate":"2022-06-28T23:36:46.7070143+02:00","EndDate":"2022-06-28T00:00:00+02:00"},"Type":{"Id":1,"Name":"mexican"},"OwnerId":1},{"Id":3,"Name":"Mexican3","Description":"test","Location":{"Street":"Gdans","City":"Berlin","ZIPCode":1234,"StartDate":"2022-06-28T23:36:46.7070143+02:00","EndDate":"2022-06-28T00:00:00+02:00"},"Type":{"Id":1,"Name":"mexican"},"OwnerId":1},{"Id":4,"Name":"Mexican4","Description":"test","Location":{"Street":"Gdans","City":"Berlin","ZIPCode":1234,"StartDate":"2022-06-28T23:36:46.7070143+02:00","EndDate":"2022-06-28T00:00:00+02:00"},"Type":{"Id":1,"Name":"mexican"},"OwnerId":1},{"Id":5,"Name":"Mexican5","Description":"test","Location":{"Street":"Gdans","City":"Berlin","ZIPCode":1234,"StartDate":"2022-06-28T23:36:46.7070143+02:00","EndDate":"2022-06-28T00:00:00+02:00"},"Type":{"Id":1,"Name":"mexican"},"OwnerId":1},{"Id":6,"Name":"Mexican6","Description":"test","Location":{"Street":"Gdans","City":"Berlin","ZIPCode":1234,"StartDate":"2022-06-28T23:36:46.7070143+02:00","EndDate":"2022-06-28T00:00:00+02:00"},"Type":{"Id":1,"Name":"mexican"},"OwnerId":1},{"Id":7,"Name":"Mexican7","Description":"test","Location":{"Street":"Gdans","City":"Berlin","ZIPCode":1234,"StartDate":"2022-06-28T23:36:46.7070143+02:00","EndDate":"2022-06-28T00:00:00+02:00"},"Type":{"Id":1,"Name":"mexican"},"OwnerId":1},{"Id":8,"Name":"Mexican8","Description":"test","Location":{"Street":"Gdans","City":"Berlin","ZIPCode":1234,"StartDate":"2022-06-28T23:36:46.7070143+02:00","EndDate":"2022-06-28T00:00:00+02:00"},"Type":{"Id":1,"Name":"mexican"},"OwnerId":1},{"Id":9,"Name":"Mexican9","Description":"test","Location":{"Street":"Gdans","City":"Berlin","ZIPCode":1234,"StartDate":"2022-06-28T23:36:46.7070143+02:00","EndDate":"2022-06-28T00:00:00+02:00"},"Type":{"Id":1,"Name":"mexican"},"OwnerId":1},{"Id":10,"Name":"Mexican10","Description":"test","Location":{"Street":"Gdans","City":"Berlin","ZIPCode":1234,"StartDate":"2022-06-28T23:36:46.7070143+02:00","EndDate":"2022-06-28T00:00:00+02:00"},"Type":{"Id":1,"Name":"mexican"},"OwnerId":1}]